     2              OBSERVATION DATA    GPS                 RINEX VERSION / TYPE
DAT2RINW 3.10 001                                           PGM / RUN BY / DATE 
                                                            COMMENT             
536                                                         MARKER NAME
                                                            MARKER NUMBER       
                                                            OBSERVER / AGENCY   
  81153618                  CSI                             REC # / TYPE / VERS 
                                                            ANT # / TYPE        
 -2615079.0013  4732752.3647  3371476.1388                  APPROX POSITION XYZ 
        0.0400        0.0000        0.0000                  ANTENNA: DELTA H/E/N
     1     0                                                WAVELENGTH FACT L1/2
     2    C1    L1                                          # / TYPES OF OBSERV 
  2018     6    25     2    36   10.000000      GPS         TIME OF FIRST OBS   
  2018     6    25     5     9   15.000000      GPS         TIME OF LAST OBS    
                                                            END OF HEADER       
 18  6 25  2 36 10.0000000  0 10G27G30G11G16G23G18G07G08G09G01
  21690321.658     6577152.239  
  23702601.463     2312346.876  
  21878069.993     3371738.440  
  23339040.233     3860242.483  
  23999574.152   -60301205.157  
  21627685.745     6248379.303  
  21462770.302   -41263235.821  
  20404404.638   -61597563.370  
  23240486.245    -4757778.065  
  23200921.328   -58245472.839  
 18  6 25  2 36 15.0000000  0 10G27G30G11G16G23G18G07G08G09G01
  21692793.935     6590147.147  
  23699466.683     2295871.272  
  21875252.877     3356937.331  
  23341033.152     3870731.783  
  24002288.110   -60286956.947  
  21624852.602     6233498.591  
  21460533.709   -41274988.837  
  20405063.940   -61594092.874  
  23242553.284    -4746917.254  
  23197386.033   -58264045.270  
 18  6 25  2 36 20.0000000  0 10G27G30G11G16G23G18G07G08G09G01
  21695267.811     6603146.478  
  23696332.786     2279400.072  
  21872438.505     3342145.253  
  23343031.676     3881223.395  
  24005002.238   -60272708.895  
  21622023.349     6218627.778  
  21458299.289   -41286731.230  
  20405727.560   -61590612.473  
  23244620.636    -4736049.719  
  23193853.769   -58282614.371  
 18  6 25  2 36 25.0000000  0 10G27G30G11G16G23G18G07G08G09G01
  21697742.514     6616150.327  
  23693198.143     2262933.406  
  21869626.391     3327362.265  
  23345030.742     3891717.404  
  24007712.471   -60258460.908  
  21619195.924     6203767.008  
  21456067.127   -41298462.887  
  20406391.292   -61587122.104  
  23246689.961    -4725175.427  
  23190320.043   -58301180.018  
 18  6 25  2 36 30.0000000  0 10G27G30G11G16G23G18G07G08G09G01
  21700218.129     6629158.685  
  23690066.701     2246471.220  
  21866813.901     3312588.483  
  23347026.713     3902213.832  
  24010428.051   -60244213.058  
  21616368.839     6188916.266  
  21453836.448   -41310183.783  
  20407057.653   -61583621.586  
  23248759.910    -4714294.267  
  23186787.943   -58319742.167  
 18  6 25  2 36 35.0000000  0 10G27G30G11G16G23G18G07G08G09G01
  21702694.355     6642171.758  
  23686935.441     2230013.783  
  21864005.456     3297824.094  
  23349024.297     3912712.854  
  24013140.951   -60229965.032  
  21613546.085     6174075.836  
  21451608.384   -41321893.693  
  20407726.485   -61580110.872  
  23250831.472    -4703406.144  
  23183255.740   -58338300.584  
 18  6 25  2 36 40.0000000  0 10G27G30G11G16G23G18G07G08G09G01
  21705172.519     6655189.441  
  23683804.545     2213560.993  
  21861197.089     3283068.938  
  23351023.675     3923214.413  
  24015852.784   -60215717.044  
  21610723.551     6159245.522  
  21449382.258   -41333592.744  
  20408395.108   -61576590.135  
  23252905.401    -4692511.074  
  23179726.332   -58356855.414  
 18  6 25  2 36 45.0000000  0 10G27G30G11G16G23G18G07G08G09G01
  21707649.472     6668211.341  
  23680672.438     2197112.584  
  21858390.659     3268322.761  
  23353021.556     3933718.158  
  24018564.980   -60201469.405  
  21607903.528     6144425.049  
  21447159.929   -41345281.186  
  20409067.243   -61573059.677  
  23254980.409    -4681609.466  
  23176196.286   -58375406.902  
 18  6 25  2 36 50.0000000  0 10G27G30G11G16G23G18G07G08G09G01
  21710129.470     6681237.782  
  23677543.805     2180668.732  
  21855587.560     3253585.736  
  23355021.910     3944224.282  
  24021274.211   -60187221.894  
  21605084.975     6129614.722  
  21444935.637   -41356958.813  
  20409741.993   -61569519.217  
  23257056.888    -4670701.093  
  23172666.137   -58393954.834  
 18  6 25  2 36 55.0000000  0 10G27G30G11G16G23G18G07G08G09G01
  21712608.406     6694268.650  
  23674414.825     2164229.447  
  21852782.254     3238857.865  
  23357020.916     3954732.828  
  24023987.675   -60172974.503  
  21602268.937     6114814.498  
  21442716.007   -41368625.625  
  20410417.255   -61565968.768  
  23259136.168    -4659785.985  
  23169136.929   -58412499.219  
 18  6 25  2 37  0.0000000  0 10G27G30G11G16G23G18G07G08G09G01
  21715089.275     6707303.973  
  23671290.068     2147794.784  
  21849983.175     3224139.212  
  23359022.427     3965243.811  
  24026699.208   -60158727.276  
  21599453.688     6100024.375  
  21440498.024   -41380281.600  
  20411093.163   -61562408.370  
  23261213.089    -4648864.131  
  23165608.654   -58431040.017  
 18  6 25  2 37  5.0000000  0 10G27G30G11G16G23G18G07G08G09G01
  21717570.076     6720343.477  
  23668161.809     2131364.418  
  21847183.883     3209429.468  
  23361021.294     3975756.935  
  24029408.240   -60144480.489  
  21596640.946     6085244.215  
  21438281.832   -41391926.933  
  20411773.724   -61558838.219  
  23263292.946    -4637935.798  
  23162081.024   -58449577.438  
 18  6 25  2 37 10.0000000  0 10G27G30G11G16G23G18G07G08G09G01
  21720052.067     6733387.665  
  23665039.032     2114938.955  
  21844387.929     3194729.172  
  23363023.498     3986272.662  
  24032118.177   -60130233.610  
  21593830.540     6070474.418  
  21436067.403   -41403561.231  
  20412454.617   -61555257.926  
  23265373.278    -4627000.563  
  23158554.872   -58468111.011  
 18  6 25  2 37 15.0000000  0 10G27G30G11G16G23G18G07G08G09G01
  21722534.905     6746436.276  
  23661911.093     2098518.074  
  21841591.105     3180038.084  
  23365024.975     3996790.775  
  24034829.247   -60115987.003  
  21591020.980     6055714.669  
  21433856.540   -41415184.662  
  20413137.359   -61551667.751  
  23267455.030    -4616058.671  
  23155026.705   -58486641.058  
 18  6 25  2 37 20.0000000  0 10G27G30G11G16G23G18G07G08G09G01
  21725019.416     6759489.237  
  23658787.545     2082101.810  
  21838795.953     3165356.219  
  23367026.265     4007311.346  
  24037540.415   -60101740.571  
  21588215.812     6040965.178  
  21431646.491   -41426797.182  
  20413821.917   -61548067.697  
  23269537.595    -4605110.111  
  23151503.072   -58505167.433  
 18  6 25  2 37 25.0000000  0 10G27G30G11G16G23G18G07G08G09G01
  21727504.228     6772546.921  
  23655665.872     2065690.539  
  21836005.395     3150683.918  
  23369027.569     4017834.608  
  24040249.452   -60087494.079  
  21585410.658     6026226.147  
  21429438.746   -41438398.473  
  20414509.780   -61544457.404  
  23271620.891    -4594154.627  
  23147979.168   -58523689.901  
 18  6 25  2 37 30.0000000  0 10G27G30G11G16G23G18G07G08G09G01
  21729990.433     6785609.104  
  23652542.874     2049283.989  
  21833212.796     3136020.958  
  23371029.694     4028360.384  
  24042958.308   -60073247.779  
  21582608.043     6011497.369  
  21427232.967   -41449988.810  
  20415199.323   -61540837.004  
  23273709.587    -4583192.422  
  23144455.512   -58542208.569  
 18  6 25  2 37 35.0000000  0 10G27G30G11G16G23G18G07G08G09G01
  21732475.144     6798675.594  
  23649420.528     2032882.048  
  21830425.714     3121367.187  
  23373035.619     4038888.510  
  24045665.527   -60059001.755  
  21579806.366     5996778.798  
  21425029.414   -41461568.266  
  20415889.948   -61537206.796  
  23275794.499    -4572223.619  
  23140932.366   -58560723.671  
 18  6 25  2 37 40.0000000  0 10G27G30G11G16G23G18G07G08G09G01
  21734963.165     6811746.437  
  23646301.206     2016484.800  
  21827639.367     3106722.691  
  23375038.129     4049419.047  
  24048378.202   -60044756.044  
  21577007.570     5982070.443  
  21422828.027   -41473136.831  
  20416583.167   -61533566.687  
  23277884.009    -4561248.229  
  23137409.524   -58579235.073  
 18  6 25  2 37 45.0000000  0 10G27G30G11G16G23G18G07G08G09G01
  21737452.118     6824821.592  
  23643182.673     2000092.219  
  21824854.094     3092087.431  
  23377044.862     4059951.963  
  24051092.382   -60030510.673  
  21574211.708     5967372.320  
  21420628.430   -41484694.475  
  20417276.602   -61529916.816  
  23279972.733    -4550266.265  
  23133887.615   -58597742.775  
 18  6 25  2 37 50.0000000  0 10G27G30G11G16G23G18G07G08G09G01
  21739941.036     6837900.922  
  23640062.387     1983704.115  
  21822069.646     3077461.305  
  23379048.269     4070487.110  
  24053803.808   -60016265.772  
  21571416.385     5952684.283  
  21418430.801   -41496241.319  
  20417974.152   -61526257.192  
  23282064.428    -4539277.901  
  23130365.241   -58616246.955  
 18  6 25  2 37 55.0000000  0 10G27G30G11G16G23G18G07G08G09G01
  21742430.062     6850984.681  
  23636946.074     1967320.813  
  21819288.883     3062844.527  
  23381052.787     4081024.764  
  24056515.915   -60002021.106  
  21568623.459     5938006.558  
  21416236.143   -41507777.174  
  20418671.525   -61522587.549  
  23284159.809    -4528282.905  
  23126845.409   -58634747.371  
 18  6 25  2 38  0.0000000  0 10G27G30G11G16G23G18G07G08G09G01
  21744921.188     6864074.047  
  23633829.428     1950943.550  
  21816509.648     3048238.381  
  23383059.547     4091566.085  
  24059227.975   -59987775.516  
  21565831.918     5923340.479  
  21414042.869   -41519300.718  
  20419372.285   -61518906.842  
  23286252.996    -4517280.019  
  23123323.955   -58653242.700  
 18  6 25  2 38  5.0000000  0 10G27G30G11G16G23G18G07G08G09G01
  21747412.831     6877164.976  
  23630713.441     1934568.263  
  21813732.073     3033638.773  
  23385065.392     4102107.040  
  24061938.691   -59973533.032  
  21563043.611     5908681.885  
  21411851.256   -41530816.065  
  20420073.132   -61515219.033  
  23288346.271    -4506273.373  
  23119805.164   -58671737.080  
 18  6 25  2 38 10.0000000  0 10G27G30G11G16G23G18G07G08G09G01
  21749903.594     6890257.746  
  23627598.721     1918195.242  
  21810956.052     3019046.014  
  23387073.363     4112648.020  
  24064649.530   -59959293.308  
  21560254.712     5894031.180  
  21409662.627   -41542322.795  
  20420776.677   -61511523.851  
  23290442.101    -4495262.680  
  23116286.496   -58690230.093  
 18  6 25  2 38 15.0000000  0 10G27G30G11G16G23G18G07G08G09G01
  21752396.076     6903352.606  
  23624480.569     1901824.812  
  21808180.319     3004460.355  
  23389075.183     4123189.196  
  24067358.510   -59945056.208  
  21557467.818     5879388.539  
  21407474.143   -41553820.800  
  20421481.798   -61507821.116  
  23292538.218    -4484247.681  
  23112766.685   -58708721.596  
 18  6 25  2 38 20.0000000  0 10G27G30G11G16G23G18G07G08G09G01
  21754888.923     6916455.779  
  23621366.788     1885463.117  
  21805407.097     2989888.125  
  23391082.519     4133736.841  
  24070066.996   -59930815.435  
  21554683.577     5864760.318  
  21405289.029   -41565303.692  
  20422188.285   -61504104.491  
  23294636.131    -4473222.157  
  23109250.387   -58727205.237  
 18  6 25  2 38 25.0000000  0 10G27G30G11G16G23G18G07G08G09G01
  21757382.897     6929564.605  
  23618254.278     1869107.652  
  21802636.290     2975326.624  
  23393092.270     4144288.251  
  24072776.610   -59916573.686  
  21551904.042     5850143.759  
  21403106.330   -41576774.171  
  20422898.762   -61500376.613  
  23296734.599    -4462188.758  
  23105736.217   -58745683.685  
 18  6 25  2 38 30.0000000  0 10G27G30G11G16G23G18G07G08G09G01
  21759878.377     6942678.119  
  23615146.707     1852757.359  
  21799866.703     2960774.878  
  23395101.810     4154842.512  
  24075488.159   -59902331.960  
  21549123.294     5835538.065  
  21400925.280   -41588233.228  
  20423609.456   -61496638.637  
  23298836.433    -4451148.490  
  23102216.828   -58764157.880  
 18  6 25  2 38 35.0000000  0 10G27G30G11G16G23G18G07G08G09G01
  21762374.859     6955795.905  
  23612035.846     1836411.952  
  21797100.120     2946232.539  
  23397109.919     4165399.172  
  24078197.704   -59888090.653  
  21546346.266     5820942.742  
  21398747.091   -41599681.175  
  20424323.298   -61492890.800  
  23300938.124    -4440101.731  
  23098703.879   -58782628.248  
 18  6 25  2 38 40.0000000  0 10G27G30G11G16G23G18G07G08G09G01
  21764873.180     6968918.097  
  23608925.679     1820071.377  
  21794333.660     2931699.765  
  23399118.150     4175958.408  
  24080905.225   -59873849.605  
  21543571.792     5806357.959  
  21396571.457   -41611117.881  
  20425037.692   -61489133.019  
  23303039.651    -4429048.409  
  23095190.049   -58801094.570  
 18  6 25  2 38 45.0000000  0 10G27G30G11G16G23G18G07G08G09G01
  21767368.837     6982044.706  
  23605818.572     1803735.905  
  21791570.117     2917176.530  
  23401130.443     4186520.228  
  24083614.805   -59859608.834  
  21540798.233     5791783.832  
  21394395.450   -41622543.369  
  20425755.147   -61485365.318  
  23305147.387    -4417988.509  
  23091676.991   -58819556.881  
 18  6 25  2 38 50.0000000  0 10G27G30G11G16G23G18G07G08G09G01
  21769867.317     6995175.402  
  23602710.710     1787405.050  
  21788808.251     2902662.644  
  23403138.260     4197084.369  
  24086325.490   -59845368.630  
  21538026.637     5777219.942  
  21392225.269   -41633957.866  
  20426474.421   -61481587.962  
  23307251.934    -4406922.296  
  23088164.751   -58838015.410  
 18  6 25  2 38 55.0000000  0 10G27G30G11G16G23G18G07G08G09G01
  21772367.305     7008310.271  
  23599602.640     1771079.116  
  21786048.753     2888158.104  
  23405151.164     4207650.908  
  24089034.965   -59831128.945  
  21535256.120     5762666.460  
  21390054.594   -41645361.262  
  20427194.918   -61477800.842  
  23309360.566    -4395849.721  
  23084653.161   -58856470.045  
 18  6 25  2 39  0.0000000  0 10G27G30G11G16G23G18G07G08G09G01
  21774869.400     7021449.316  
  23596495.246     1754757.974  
  21783290.360     2873662.938  
  23407160.450     4218219.774  
  24091743.971   -59816889.857  
  21532488.426     5748123.379  
  21387885.740   -41656753.592  
  20427917.522   -61474004.094  
  23311469.588    -4384770.799  
  23081141.389   -58874920.866  
 18  6 25  2 39  5.0000000  0 10G27G30G11G16G23G18G07G08G09G01
  21777369.498     7034592.679  
  23593388.429     1738441.848  
  21780532.831     2859177.345  
  23409170.458     4228791.270  
  24094454.414   -59802651.133  
  21529724.315     5733590.904  
  21385720.612   -41668134.629  
  20428642.135   -61470197.426  
  23313578.901    -4373685.404  
  23077631.054   -58893367.636  
 18  6 25  2 39 10.0000000  0 10G27G30G11G16G23G18G07G08G09G01
  21779871.863     7047740.195  
  23590282.020     1722130.553  
  21777778.714     2844701.219  
  23411185.452     4239365.151  
  24097163.976   -59788412.910  
  21526960.325     5719068.916  
  21383556.462   -41679504.558  
  20429367.585   -61466381.051  
  23315689.623    -4362593.639  
  23074121.698   -58911810.406  
 18  6 25  2 39 15.0000000  0 10G27G30G11G16G23G18G07G08G09G01
  21782372.929     7060891.974  
  23587179.893     1705824.301  
  21775026.304     2830234.614  
  23413197.144     4249941.491  
  24099871.811   -59774175.190  
  21524197.755     5704557.559  
  21381396.024   -41690863.260  
  20430095.743   -61462554.948  
  23317800.622    -4351495.479  
  23070613.047   -58930249.220  
 18  6 25  2 39 20.0000000  0 10G27G30G11G16G23G18G07G08G09G01
  21784877.022     7074048.023  
  23584079.647     1689522.981  
  21772275.059     2815777.573  
  23415211.290     4260520.471  
  24102581.526   -59759937.849  
  21521438.640     5690056.735  
  21379236.178   -41702210.674  
  20430825.066   -61458718.960  
  23319913.787    -4340390.872  
  23067104.846   -58948683.932  
 18  6 25  2 39 25.0000000  0 10G27G30G11G16G23G18G07G08G09G01
  21787381.483     7087208.243  
  23580979.627     1673226.591  
  21769525.471     2801330.019  
  23417225.089     4271101.799  
  24105290.751   -59745701.079  
  21518681.468     5675566.509  
  21377079.563   -41713546.925  
  20431557.619   -61454873.231  
  23322028.752    -4329279.989  
  23063597.157   -58967114.661  
 18  6 25  2 39 30.0000000  0 10G27G30G11G16G23G18G07G08G09G01
  21789887.235     7100372.618  
  23577881.900     1656935.107  
  21766777.890     2786891.991  
  23419238.318     4281685.573  
  24108001.554   -59731464.830  
  21515926.732     5661086.736  
  21374924.525   -41724871.953  
  20432290.606   -61451017.773  
  23324143.577    -4318162.797  
  23060091.761   -58985541.385  
 18  6 25  2 39 35.0000000  0 10G27G30G11G16G23G18G07G08G09G01
  21792392.188     7113540.862  
  23574782.371     1640648.408  
  21764032.657     2772463.180  
  23421253.038     4292271.600  
  24110709.698   -59717229.461  
  21513173.343     5646617.340  
  21372770.834   -41736186.025  
  20433027.229   -61447152.838  
  23326258.318    -4307039.487  
  23056585.135   -59003964.281  
 18  6 25  2 39 40.0000000  0 10G27G30G11G16G23G18G07G08G09G01
  21794900.935     7126713.433  
  23571683.489     1624366.819  
  21761288.356     2758044.049  
  23423266.973     4302860.127  
  24113418.058   -59702994.472  
  21510422.174     5632158.658  
  21370620.794   -41747488.745  
  20433764.212   -61443278.001  
  23328379.286    -4295909.789  
  23053080.015   -59022383.047  
 18  6 25  2 39 45.0000000  0 10G27G30G11G16G23G18G07G08G09G01
  21797406.771     7139890.005  
  23568586.132     1608090.023  
  21758546.440     2743634.291  
  23425284.724     4313451.104  
  24116126.799   -59688760.215  
  21507671.958     5617710.484  
  21368471.564   -41758780.293  
  20434502.577   -61439393.615  
  23330497.773    -4284773.978  
  23049575.276   -59040797.889  
 18  6 25  2 39 50.0000000  0 10G27G30G11G16G23G18G07G08G09G01
  21799915.229     7153070.666  
  23565487.533     1591818.244  
  21755806.286     2729234.102  
  23427299.514     4324044.434  
  24118835.299   -59674526.638  
  21504924.077     5603272.834  
  21366324.240   -41770060.633  
  20435243.706   -61435499.562  
  23332616.162    -4273631.917  
  23046072.728   -59059208.680  
 18  6 25  2 39 55.0000000  0 10G27G30G11G16G23G18G07G08G09G01
  21802424.093     7166255.384  
  23562388.481     1575551.478  
  21753067.110     2714843.442  
  23429314.282     4334640.201  
  24121544.778   -59660293.723  
  21502178.606     5588845.776  
  21364180.327   -41781329.738  
  20435986.673   -61431595.829  
  23334738.248    -4262483.576  
  23042570.014   -59077615.415  
 18  6 25  2 40  0.0000000  0 10G27G30G11G16G23G18G07G08G09G01
  21804932.621     7179444.471  
  23559300.684     1559289.912  
  21750330.746     2700462.624  
  23431331.432     4345238.745  
  24124252.919   -59646061.144  
  21499436.662     5574429.559  
  21362039.512   -41792587.357  
  20436731.163   -61427682.273  
  23336863.003    -4251328.811  
  23039066.391   -59096017.788  
 18  6 25  2 40  5.0000000  0 10G27G30G11G16G23G18G07G08G09G01
  21807445.371     7192637.687  
  23556204.803     1543033.309  
  21747595.600     2686091.351  
  23433346.937     4355839.622  
  24126961.562   -59631829.331  
  21496694.504     5560024.067  
  21359899.342   -41803833.693  
  20437478.159   -61423759.058  
  23338987.116    -4240167.936  
  23035567.134   -59114416.090  
 18  6 25  2 40 10.0000000  0 10G27G30G11G16G23G18G07G08G09G01
  21809956.341     7205834.835  
  23553114.297     1526781.707  
  21744863.111     2671729.563  
  23435366.530     4366442.934  
  24129669.856   -59617598.186  
  21493955.432     5545629.120  
  21357759.968   -41815068.811  
  20438227.096   -61419826.188  
  23341111.452    -4229000.883  
  23032064.524   -59132810.360  
 18  6 25  2 40 15.0000000  0 10G27G30G11G16G23G18G07G08G09G01
  21812467.105     7219036.037  
  23550021.295     1510535.106  
  21742132.560     2657377.348  
  23437383.627     4377048.634  
  24132378.659   -59603367.665  
  21491217.727     5531244.836  
  21355624.537   -41826292.672  
  20438976.255   -61415883.714  
  23343238.443    -4217827.656  
  23028565.713   -59151200.546  
 18  6 25  2 40 20.0000000  0 10G27G30G11G16G23G18G07G08G09G01
  21814981.533     7232241.360  
  23546928.237     1494293.722  
  21739402.526     2643034.816  
  23439403.958     4387656.912  
  24135087.549   -59589137.767  
  21488482.542     5516871.312  
  21353490.911   -41837505.141  
  20439728.649   -61411931.515  
  23345362.946    -4206648.208  
  23025067.991   -59169586.437  
 18  6 25  2 40 25.0000000  0 10G27G30G11G16G23G18G07G08G09G01
  21817494.614     7245450.714  
  23543836.980     1478057.334  
  21736673.149     2628701.881  
  23441421.656     4398267.627  
  24137794.663   -59574908.627  
  21485750.016     5502508.472  
  21351359.514   -41848706.277  
  20440483.273   -61407969.746  
  23347492.111    -4195462.582  
  23021569.638   -59187968.178  
 18  6 25  2 40 30.0000000  0  9G27G30G11G16G18G07G08G09G01
  21820010.014     7258664.120  
  23540751.476     1461826.002  
  21733949.238     2614378.566  
  23443439.954     4408880.762  
  21483019.380     5488156.339  
  21349230.150   -41859896.033  
  20441238.929   -61403998.394  
  23349621.592    -4184270.794  
  23018070.741   -59206345.760  
 18  6 25  2 40 35.0000000  0 10G27G30G11G16G28G18G07G08G09G01
  21822522.406     7271881.593  
  23537663.107     1445599.881  
  21731224.466     2600064.915  
  23445463.544     4419496.384  
  25238364.115    41540309.028  
  21480290.315     5473815.041  
  21347102.787   -41871074.422  
  20441996.442   -61400017.457  
  23351752.215    -4173072.944  
  23014576.134   -59224719.119  
 18  6 25  2 40 40.0000000  0 10G27G30G11G16G28G18G07G08G09G01
  21825040.346     7285103.265  
  23534578.712     1429378.999  
  21728504.240     2585761.066  
  23447482.809     4430114.705  
  25236422.739    41530107.821  
  21477562.649     5459484.600  
  21344977.108   -41882241.212  
  20442755.353   -61396026.614  
  23353881.231    -4161868.648  
  23011080.636   -59243088.054  
 18  6 25  2 40 45.0000000  0 10G27G30G11G16G28G18G07G08G09G01
  21827557.341     7298329.141  
  23531492.227     1413163.447  
  21725784.213     2571467.066  
  23449504.133     4440735.614  
  25234480.846    41519905.375  
  21474839.617     5445165.057  
  21342854.633   -41893396.454  
  20443516.466   -61392026.011  
  23356008.444    -4150658.250  
  23007585.337   -59261452.640  
 18  6 25  2 40 50.0000000  0 10G27G30G11G16G28G18G07G08G09G01
  21830074.962     7311558.854  
  23528408.944     1396952.788  
  21723065.099     2557182.543  
  23451527.944     4451358.730  
  25232533.713    41509701.470  
  21472115.352     5430856.239  
  21340734.073   -41904540.439  
  20444279.637   -61388016.080  
  23358138.572    -4139441.879  
  23004092.096   -59279813.065  
 18  6 25  2 40 55.0000000  0 10G27G30G11G16G28G18G07G08G09G01
  21832592.682     7324792.392  
  23525325.044     1380747.085  
  21720349.232     2542907.487  
  23453550.136     4461984.238  
  25230590.542    41499495.897  
  21469393.617     5416557.984  
  21338616.329   -41915673.260  
  20445044.481   -61383996.697  
  23360270.659    -4128219.631  
  23000599.526   -59298169.488  
 18  6 25  2 41  0.0000000  0 10G27G30G11G16G28G18G07G08G09G01
  21835111.876     7338029.815  
  23522239.471     1364546.533  
  21717634.983     2528642.036  
  23455569.081     4472612.113  
  25228651.708    41489288.955  
  21466674.789     5402270.462  
  21336499.489   -41926794.739  
  20445811.658   -61379967.757  
  23362404.507    -4116991.345  
  22997105.855   -59316521.612  
 18  6 25  2 41  5.0000000  0 10G27G30G11G16G28G18G07G08G09G01
  21837632.920     7351271.423  
  23519154.603     1348351.367  
  21714923.870     2514386.470  
  23457594.455     4483242.747  
  25226708.140    41479080.804  
  21463958.096     5387993.960  
  21334385.499   -41937904.582  
  20446580.112   -61375929.043  
  23364548.360    -4105756.841  
  22993616.322   -59334869.338  
 18  6 25  2 41 10.0000000  0 10G27G30G11G16G28G18G07G08G09G01
  21840151.596     7364516.898  
  23516073.806     1332161.193  
  21712209.818     2500140.479  
  23459617.747     4493875.659  
  25224766.498    41468871.146  
  21461244.187     5373728.197  
  21332273.292   -41949003.036  
  20447350.062   -61371880.862  
  23366699.147    -4094516.413  
  22990124.565   -59353212.869  
 18  6 25  2 41 15.0000000  0 10G27G30G11G16G28G18G07G08G09G01
  21842672.258     7377765.881  
  23512994.708     1315975.892  
  21709501.185     2485903.760  
  23461640.019     4504510.678  
  25222825.697    41458659.691  
  21458530.689     5359472.809  
  21330163.784   -41960090.383  
  20448122.426   -61367823.601  
  23368842.904    -4083270.382  
  22986634.364   -59371552.511  
 18  6 25  2 41 20.0000000  0 10G27G30G11G16G28G18G07G08G09G01
  21845195.161     7391019.015  
  23509918.424     1299795.881  
  21706794.937     2471676.964  
  23463663.960     4515148.476  
  25220883.130    41448447.051  
  21455820.005     5345228.412  
  21328054.945   -41971166.099  
  20448896.889   -61363756.581  
  23370986.184    -4072018.109  
  22983144.974   -59389887.585  
 18  6 25  2 41 25.0000000  0 10G27G30G11G16G28G18G07G08G09G01
  21847717.163     7404276.070  
  23506841.956     1283621.135  
  21704089.362     2457459.902  
  23465688.576     4525788.640  
  25218940.092    41438233.035  
  21453111.426     5330994.926  
  21325949.927   -41982230.361  
  20449672.312   -61359680.014  
  23373127.133    -4060759.912  
  22979657.259   -59408218.384  
 18  6 25  2 41 30.0000000  0 10G27G30G11G16G28G18G07G08G09G01
  21850242.742     7417537.494  
  23503765.056     1267451.993  
  21701385.074     2443253.055  
  23467714.907     4536431.694  
  25216996.052    41428018.034  
  21450405.993     5316772.898  
  21323847.198   -41993282.702  
  20450450.166   -61355593.539  
  23375270.227    -4049495.283  
  22976169.257   -59426544.363  
 18  6 25  2 41 35.0000000  0 10G27G30G11G16G28G18G07G08G09G01
  21852765.909     7430802.048  
  23500691.182     1251287.270  
  21698683.955     2429055.083  
  23469740.972     4547076.490  
  25215053.892    41417800.841  
  21447700.867     5302560.910  
  21321746.492   -42004324.446  
  20451229.757   -61351498.376  
  23377414.916    -4038225.500  
  22972681.275   -59444866.772  
 18  6 25  2 41 40.0000000  0 10G27G30G11G16G28G18G07G08G09G01
  21855291.164     7444071.065  
  23497614.531     1235128.375  
  21695983.493     2414867.508  
  23471765.691     4557724.278  
  25213108.526    41407582.831  
  21444998.974     5288360.446  
  21319647.159   -42015353.996  
  20452010.006   -61347393.050  
  23379560.548    -4026949.216  
  22969198.386   -59463184.231  
 18  6 25  2 41 45.0000000  0 10G27G30G11G16G28G18G07G08G09G01
  21857816.033     7457344.003  
  23494541.216     1218974.763  
  21693286.079     2400689.725  
  23473794.461     4568374.495  
  25211164.349    41397363.475  
  21442298.699     5274170.869  
  21317550.446   -42026372.062  
  20452793.304   -61343278.283  
  23381705.651    -4015666.998  
  22965713.395   -59481497.277  
 18  6 25  2 41 50.0000000  0 10G27G30G11G16G28G18G07G08G09G01
  21860344.068     7470620.443  
  23491465.199     1202826.147  
  21690588.541     2386521.358  
  23475822.533     4579026.859  
  25209217.184    41387142.354  
  21439601.017     5259991.867  
  21315455.467   -42037378.971  
  20453578.336   -61339154.329  
  23383852.490    -4004379.247  
  22962227.992   -59499806.256  
 18  6 25  2 41 55.0000000  0 10G27G30G11G16G28G18G07G08G09G01
  21862869.985     7483901.104  
  23488391.499     1186683.125  
  21687896.038     2372363.061  
  23477848.343     4589680.046  
  25207272.193    41376920.135  
  21436903.792     5245824.174  
  21313364.666   -42048373.958  
  20454364.970   -61335020.612  
  23386002.217    -3993085.262  
  22958744.906   -59518110.493  
 18  6 25  2 42  0.0000000  0 10G27G30G11G16G28G18G07G08G09G01
  21865398.827     7497185.733  
  23485321.870     1170545.510  
  21685202.455     2358214.715  
  23479875.935     4600337.760  
  25205327.839    41366696.595  
  21434210.638     5231667.520  
  21311273.786   -42059357.306  
  20455152.814   -61330877.290  
  23388154.585    -3981785.253  
  22955264.174   -59536410.185  
 18  6 25  2 42  5.0000000  0 10G27G30G11G16G28G18G07G08G09G01
  21867927.536     7510473.838  
  23482250.390     1154412.721  
  21682512.458     2344075.790  
  23481907.113     4610997.574  
  25203382.064    41356471.281  
  21431518.781     5217521.441  
  21309185.204   -42070329.432  
  20455943.098   -61326724.837  
  23390304.816    -3970479.717  
  22951782.450   -59554705.780  
 18  6 25  2 42 10.0000000  0 10G27G30G11G16G28G18G07G08G09G01
  21870456.128     7523765.632  
  23479184.804     1138285.097  
  21679824.061     2329946.509  
  23483934.454     4621659.721  
  25201435.313    41346244.384  
  21428829.097     5203386.132  
  21307099.368   -42081290.151  
  20456735.699   -61322563.098  
  23392458.364    -3959168.536  
  22948300.037   -59572997.116  
 18  6 25  2 42 15.0000000  0 10G27G30G11G16G28G18G07G08G09G01
  21872986.101     7537061.954  
  23476116.877     1122163.593  
  21677137.046     2315827.774  
  23485961.458     4632325.085  
  25199486.937    41336016.729  
  21426140.650     5189262.601  
  21305017.059   -42092238.580  
  20457528.250   -61318391.227  
  23394611.003    -3947850.808  
  22944820.578   -59591283.224  
 18  6 25  2 42 20.0000000  0 10G27G30G11G16G28G18G07G08G09G01
  21875517.305     7550362.100  
  23473050.182     1106047.336  
  21674452.549     2301718.867  
  23487993.272     4642992.885  
  25197541.224    41325787.779  
  21423455.867     5175150.132  
  21302935.265   -42103175.371  
  20458324.321   -61314209.907  
  23396767.449    -3936527.267  
  22941341.778   -59609564.855  
 18  6 25  2 42 25.0000000  0 10G27G30G11G16G28G18G07G08G09G01
  21878047.303     7563665.343  
  23469984.141     1089935.779  
  21671769.279     2287619.078  
  23490023.736     4653662.530  
  25195596.309    41315556.588  
  21420772.168     5161048.002  
  21300855.271   -42114101.304  
  20459121.762   -61310019.881  
  23398921.831    -3925198.593  
  22937863.919   -59627842.694  
 18  6 25  2 42 30.0000000  0 10G27G30G11G16G28G18G07G08G09G01
  21880581.884     7576972.237  
  23466917.676     1073829.369  
  21669088.017     2273529.018  
  23492053.775     4664334.464  
  25193649.824    41305323.897  
  21418090.334     5146956.743  
  21298778.000   -42125015.741  
  20459920.639   -61305820.601  
  23401079.222    -3913864.286  
  22934388.353   -59646116.119  
 18  6 25  2 42 35.0000000  0 10G27G30G11G16G28G18G07G08G09G01
  21883113.656     7590283.311  
  23463852.836     1057728.802  
  21666408.381     2259449.194  
  23494085.727     4675009.245  
  25191702.675    41295090.176  
  21415411.556     5132876.960  
  21296705.216   -42135918.182  
  20460722.858   -61301611.604  
  23403237.667    -3902523.807  
  22930911.266   -59664384.654  
 18  6 25  2 42 40.0000000  0 10G27G30G11G16G28G18G07G08G09G01
  21885647.048     7603598.219  
  23460791.477     1041633.632  
  21663730.365     2245379.321  
  23496115.864     4685686.523  
  25189754.141    41284855.004  
  21412733.826     5118808.277  
  21294632.622   -42146808.914  
  20461524.695   -61297393.107  
  23405396.730    -3891177.508  
  22927436.084   -59682648.627  
 18  6 25  2 42 45.0000000  0 10G27G30G11G16G28G18G07G08G09G01
  21888182.873     7616917.266  
  23457731.263     1025544.194  
  21661056.500     2231319.674  
  23498149.723     4696366.750  
  25187807.756    41274618.823  
  21410059.245     5104751.008  
  21292562.032   -42157687.651  
  20462329.108   -61293164.824  
  23407557.941    -3879825.102  
  22923962.192   -59700907.627  
 18  6 25  2 42 50.0000000  0 10G27G30G11G16G28G18G07G08G09G01
  21890716.907     7630239.844  
  23454670.403     1009459.908  
  21658380.986     2217269.675  
  23500181.790     4707049.157  
  25185859.006    41264381.079  
  21407386.164     5090704.623  
  21290495.089   -42168554.928  
  20463135.879   -61288927.339  
  23409718.505    -3868467.225  
  22920485.936   -59719162.300  
 18  6 25  2 42 55.0000000  0 10G27G30G11G16G28G18G07G08G09G01
  21893253.246     7643565.813  
  23451609.272      993380.732  
  21655711.069     2203229.222  
  23502214.303     4717733.762  
  25183908.412    41254141.372  
  21404715.388     5076669.014  
  21288427.016   -42179410.881  
  20463943.095   -61284680.885  
  23411879.514    -3857103.945  
  22917014.561   -59737412.711  
 18  6 25  2 43  0.0000000  0 10G27G30G11G16G28G18G07G08G09G01
  21895789.590     7656895.524  
  23448552.296      977306.872  
  21653041.585     2189198.655  
  23504246.534     4728420.802  
  25181960.970    41243900.320  
  21402046.907     5062644.498  
  21286364.672   -42190255.144  
  20464754.323   -61280425.043  
  23414043.676    -3845734.987  
  22913542.618   -59755658.572  
 18  6 25  2 43  5.0000000  0 10G27G30G11G16G28G18G07G08G09G01
  21898327.312     7670229.059  
  23445494.981      961238.639  
  21650372.764     2175178.082  
  23506282.289     4739110.292  
  25180010.328    41233657.909  
  21399381.091     5048631.204  
  21284304.135   -42201087.660  
  20465564.496   -61276159.747  
  23416207.642    -3834360.266  
  22910071.481   -59773899.703  
 18  6 25  2 43 10.0000000  0 10G27G30G11G16G28G18G07G08G09G01
  21900864.137     7683566.347  
  23442437.770      945175.879  
  21647706.052     2161167.506  
  23508317.577     4749802.433  
  25178060.935    41223414.082  
  21396715.523     5034629.107  
  21282244.418   -42211908.425  
  20466378.781   -61271885.016  
  23418373.143    -3822979.782  
  22906599.447   -59792136.177  
 18  6 25  2 43 15.0000000  0 10G27G30G11G16G28G18G07G08G09G01
  21903402.924     7696907.398  
  23439381.807      929118.633  
  21645041.874     2147166.764  
  23510355.686     4760497.019  
  25176114.363    41213168.836  
  21394052.633     5020638.261  
  21280186.377   -42222717.421  
  20467194.169   -61267601.054  
  23420539.606    -3811593.645  
  22903131.236   -59810367.897  
 18  6 25  2 43 20.0000000  0 10G27G30G11G16G28G18G07G08G09G01
  21905943.264     7710252.303  
  23436329.113      913066.934  
  21642379.535     2133176.151  
  23512390.626     4771194.296  
  25174163.906    41202922.380  
  21391392.154     5006658.726  
  21278132.322   -42233514.504  
  20468010.681   -61263307.559  
  23422709.051    -3800201.681  
  22899663.432   -59828594.877  
 18  6 25  2 43 25.0000000  0 10G27G30G11G16G28G18G07G08G09G01
  21908483.503     7723600.768  
  23433272.740      897020.661  
  21639719.384     2119195.435  
  23514425.464     4781893.950  
  25172214.206    41192674.374  
  21388735.008     4992690.267  
  21276080.884   -42244299.947  
  20468829.381   -61259004.861  
  23424879.111    -3788804.205  
  22896194.382   -59846817.257  
 18  6 25  2 43 30.0000000  0 10G27G30G11G16G28G18G07G08G09G01
  21911024.089     7736953.264  
  23430219.720      880980.182  
  21637060.438     2105225.027  
  23516460.076     4792596.423  
  25170262.135    41182425.266  
  21386078.209     4978733.321  
  21274029.221   -42255073.324  
  20469650.717   -61254692.508  
  23427048.230    -3777400.755  
  22892727.826   -59865034.613  
 18  6 25  2 43 35.0000000  0 10G27G30G11G16G28G18G07G08G09G01
  21913564.542     7750309.155  
  23427168.713      864944.961  
  21634404.222     2091264.309  
  23518496.702     4803301.123  
  25168313.365    41172174.351  
  21383424.854     4964787.289  
  21271982.433   -42265835.242  
  20470472.206   -61250371.094  
  23429219.506    -3765991.984  
  22889262.854   -59883247.576  
 18  6 25  2 43 40.0000000  0 10G27G30G11G16G28G18G07G08G09G01
  21916106.976     7763668.785  
  23424121.118      848915.325  
  21631749.414     2077313.641  
  23520533.736     4814008.424  
  25166361.425    41161922.118  
  21380772.908     4950852.606  
  21269936.195   -42276585.253  
  20471296.536   -61246040.247  
  23431392.191    -3754577.524  
  22885798.289   -59901455.746  
 18  6 25  2 43 45.0000000  0 10G27G30G11G16G28G18G07G08G09G01
  21918650.612     7777031.822  
  23421068.572      832890.989  
  21629096.095     2063372.679  
  23522569.825     4824717.941  
  25164409.256    41151668.172  
  21378123.739     4936928.894  
  21267893.878   -42287323.703  
  20472122.783   -61241700.404  
  23433565.076    -3743157.719  
  22882334.927   -59919659.399  
 18  6 25  2 43 50.0000000  0 10G27G30G11G16G28G18G07G08G09G01
  21921194.238     7790398.721  
  23418022.169      816872.429  
  21626446.486     2049442.013  
  23524611.341     4835430.193  
  25162457.792    41141412.938  
  21375476.133     4923016.678  
  21265852.267   -42298050.114  
  20472950.736   -61237351.106  
  23435739.238    -3731732.134  
  22878870.409   -59937858.090  
 18  6 25  2 43 55.0000000  0 10G27G30G11G16G28G18G07G08G09G01
  21923739.397     7803769.190  
  23414974.008      800859.315  
  21623796.835     2035521.286  
  23526650.241     4846144.904  
  25160508.291    41131156.228  
  21372830.918     4909115.706  
  21263813.333   -42308764.819  
  20473779.079   -61232992.529  
  23437914.791    -3720301.054  
  22875408.712   -59956052.104  
 18  6 25  2 44  0.0000000  0 10G27G30G11G16G28G18G07G08G09G01
  21926283.776     7817143.188  
  23411926.354      784851.696  
  21621149.839     2021610.492  
  23528687.502     4856861.959  
  25158556.149    41120897.998  
  21370187.643     4895225.964  
  21261777.053   -42319467.728  
  20474610.218   -61228624.754  
  23440091.137    -3708864.574  
  22871946.665   -59974241.400  
 18  6 25  2 44  5.0000000  0 10G27G30G11G16G28G18G07G08G09G01
  21928829.315     7830521.066  
  23408881.578      768849.909  
  21618505.149     2007709.953  
  23530730.646     4867581.907  
  25156601.734    41110638.542  
  21367546.529     4881347.747  
  21259741.648   -42330158.582  
  20475444.092   -61224247.459  
  23442267.929    -3697422.319  
  22868485.920   -59992425.712  
 18  6 25  2 44 10.0000000  0 10G27G30G11G16G28G18G07G08G09G01
  21931375.848     7843902.678  
  23405838.798      752853.860  
  21615860.593     1993819.584  
  23532768.630     4878304.390  
  25154650.172    41100377.848  
  21364907.697     4867480.969  
  21257709.954   -42340837.396  
  20476278.244   -61219860.808  
  23444444.712    -3685974.392  
  22865028.602   -60010605.031  
 18  6 25  2 44 15.0000000  0 10G27G30G11G16G28G18G07G08G09G01
  21933923.638     7857287.877  
  23402795.986      736863.323  
  21613219.726     1979939.278  
  23534809.731     4889029.380  
  25152695.861    41090115.578  
  21362270.408     4853625.526  
  21255680.663   -42351504.397  
  20477115.369   -61215464.966  
  23446622.752    -3674521.018  
  22861569.679   -60028779.563  
 18  6 25  2 44 20.0000000  0 10G27G30G11G16G28G18G07G08G09G01
  21936471.220     7870676.773  
  23399755.686      720878.560  
  21610580.656     1966069.119  
  23536850.769     4899756.922  
  25150736.906    41079851.897  
  21359637.204     4839781.443  
  21253652.595   -42362159.406  
  20477954.005   -61211059.755  
  23448801.158    -3663062.027  
  22858111.551   -60046949.192  
 18  6 25  2 44 25.0000000  0 10G27G30G11G16G28G18G07G08G09G01
  21939019.659     7884069.924  
  23396716.242      704900.114  
  21607942.585     1952209.701  
  23538894.236     4910487.688  
  25148783.674    41069587.501  
  21357003.856     4825949.479  
  21251627.530   -42372801.835  
  20478794.213   -61206644.659  
  23450983.997    -3651596.911  
  22854655.424   -60065113.254  
 18  6 25  2 44 30.0000000  0 10G27G30G11G16G28G18G07G08G09G01
  21941569.461     7897465.948  
  23393673.725      688926.566  
  21605307.022     1938359.662  
  23540938.351     4921220.163  
  25146830.229    41059320.903  
  21354375.590     4812128.121  
  21249603.542   -42383433.060  
  20479634.924   -61202221.062  
  23453165.051    -3640127.128  
  22851199.228   -60083273.160  
 18  6 25  2 44 35.0000000  0 10G27G30G11G16G28G18G07G08G09G01
  21944118.778     7910865.291  
  23390636.591      672958.429  
  21602673.836     1924519.505  
  23542982.983     4931955.034  
  25144886.174    41049052.620  
  21351746.840     4798317.930  
  21247584.077   -42394052.638  
  20480479.302   -61197788.432  
  23455351.344    -3628652.062  
  22847743.407   -60101428.389  
 18  6 25  2 44 40.0000000  0 10G27G30G11G16G28G18G07G08G09G01
  21946669.363     7924268.081  
  23387597.433      656995.900  
  21600040.772     1910689.319  
  23545025.019     4942692.248  
  25142952.258    41038782.787  
  21349121.503     4784519.056  
  21245565.880   -42404660.417  
  20481324.946   -61193346.770  
  23457535.041    -3617171.705  
  22844288.996   -60119578.892  
 18  6 25  2 44 45.0000000  0 10G27G30G11G16G28G18G07G08G09G01
  21949220.463     7937674.414  
  23384560.078      641039.067  
  21597412.231     1896869.260  
  23547069.288     4953432.046  
  25141000.112    41028511.730  
  21346496.254     4770731.516  
  21243547.483   -42415256.218  
  20482170.963   -61188895.906  
  23459722.831    -3605685.905  
  22840835.530   -60137724.426  
 18  6 25  2 44 50.0000000  0 10G27G30G11G16G28G18G07G08G09G01
  21951771.283     7951084.556  
  23381526.163      625088.123  
  21594784.411     1883059.523  
  23549110.414     4964174.547  
  25139046.827    41018239.274  
  21343875.874     4756955.648  
  21241533.813   -42425839.829  
  20483019.275   -61184435.553  
  23461911.055    -3594194.446  
  22837386.648   -60155864.838  
 18  6 25  2 44 55.0000000  0 10G27G30G11G16G28G18G07G08G09G01
  21954325.238     7964498.160  
  23378491.520      609142.807  
  21592158.296     1869259.906  
  23551154.962     4974919.514  
  25137082.941    41007965.200  
  21341256.627     4743191.170  
  21239521.848   -42436411.551  
  20483869.148   -61179966.071  
  23464097.407    -3582697.672  
  22833933.891   -60174000.329  
 18  6 25  2 45  0.0000000  0 10G27G30G11G16G28G18G07G08G09G01
  21956878.592     7977915.206  
  23375458.565      593203.137  
  21589534.727     1855470.320  
  23553200.768     4985666.860  
  25135126.753    40997689.740  
  21338637.351     4729438.101  
  21237513.145   -42446971.372  
  20484722.570   -61175487.499  
  23466287.021    -3571195.603  
  22830483.966   -60192130.994  
 18  6 25  2 45  5.0000000  0 10G27G30G11G16G28G18G07G08G09G01
  21959431.835     7991335.957  
  23372426.788      577269.424  
  21586912.908     1841691.123  
  23555242.744     4996417.002  
  25133163.443    40987412.811  
  21336024.260     4715696.795  
  21235505.047   -42457518.959  
  20485576.454   -61170999.540  
  23468478.385    -3559687.936  
  22827033.931   -60210256.411  
 18  6 25  2 45 10.0000000  0  9G27G30G11G16G18G07G08G09G01
  21961986.463     8004760.302  
  23369396.538      561341.505  
  21584292.044     1827922.112  
  23557288.251     5007169.638  
  21333411.982     4701967.040  
  21233500.337   -42468054.508  
  20486433.153   -61166502.352  
  23470669.416    -3548174.871  
  22823586.425   -60228376.807  
 18  6 25  2 45 15.0000000  0  9G27G30G11G16G18G07G08G09G01
  21964541.401     8018188.083  
  23366366.312      545419.302  
  21581673.494     1814163.248  
  23559336.930     5017924.861  
  21330800.587     4688248.787  
  21231497.941   -42478578.024  
  20487290.735   -61161996.055  
  23472862.618    -3536656.498  
  22820138.371   -60246492.228  
 18  6 25  2 45 20.0000000  0  9G27G30G11G16G18G07G08G09G01
  21967095.492     8031619.555  
  23363335.668      529503.047  
  21579057.101     1800414.791  
  23561388.053     5028682.799  
  21328194.353     4674542.213  
  21229497.129   -42489089.333  
  20488149.615   -61157480.312  
  23475054.257    -3525132.623  
  22816692.188   -60264602.421  
 18  6 25  2 45 25.0000000  0  9G27G30G11G16G18G07G08G09G01
  21969652.142     8045054.299  
  23360308.729      513592.334  
  21576443.125     1786676.272  
  23563437.013     5039443.004  
  21325585.385     4660846.910  
  21227500.023   -42499588.893  
  20489009.625   -61152955.796  
  23477249.314    -3513603.688  
  22813249.137   -60282707.897  
 18  6 25  2 45 30.0000000  0  9G27G30G11G16G18G07G08G09G01
  21972211.734     8058492.315  
  23357280.867      497687.276  
  21573829.657     1772947.798  
  23565485.194     5050205.624  
  21322981.791     4647162.947  
  21225504.139   -42510076.499  
  20489873.291   -61148422.277  
  23479442.161    -3502069.593  
  22809803.733   -60300808.411  
 18  6 25  2 45 35.0000000  0  9G27G30G11G16G18G07G08G09G01
  21974768.461     8071933.920  
  23354257.582      481788.156  
  21571219.335     1759229.662  
  23567532.228     5060970.788  
  21320381.342     4633490.706  
  21223511.832   -42520551.972  
  20490737.813   -61143879.558  
  23481636.437    -3490530.169  
  22806361.475   -60318903.780  
 18  6 25  2 45 40.0000000  0  9G27G30G11G16G18G07G08G09G01
  21977328.071     8085378.878  
  23351231.742      465894.722  
  21568611.610     1745521.681  
  23569579.140     5071738.496  
  21317780.915     4619829.919  
  21221519.688   -42531015.433  
  20491602.786   -61139327.793  
  23483830.447    -3478985.553  
  22802918.951   -60336994.144  
 18  6 25  2 45 45.0000000  0 10G27G30G11G16G23G18G07G08G09G01
  21979886.645     8098827.423  
  23348210.589      450007.283  
  21566004.565     1731824.101  
  23571626.589     5082508.824  
  24310693.361    56408188.275  
  21315184.172     4606180.871  
  21219532.231   -42541466.688  
  20492471.157   -61134766.736  
  23486027.570    -3467435.573  
  22799474.246   -60355079.305  
 18  6 25  2 45 50.0000000  0 10G27G30G11G16G23G18G07G08G09G01
  21982447.264     8112279.659  
  23345187.761      434125.875  
  21563399.709     1718137.019  
  23573673.222     5093281.978  
  24313386.340    56422343.119  
  21312589.762     4592543.684  
  21217545.389   -42551905.560  
  20493340.430   -61130196.390  
  23488226.310    -3455880.085  
  22796035.450   -60373159.073  
 18  6 25  2 45 55.0000000  0 10G27G30G11G16G23G18G07G08G09G01
  21985007.173     8125735.410  
  23342166.656      418250.448  
  21560797.148     1704460.242  
  23575719.288     5104057.732  
  24316080.183    56436496.579  
  21309996.645     4578918.237  
  21215562.702   -42562332.262  
  20494212.284   -61125616.885  
  23490429.634    -3444319.271  
  22792595.515   -60391233.640  
 18  6 25  2 46  0.0000000  0 10G27G30G11G16G23G18G07G08G09G01
  21987567.179     8139194.430  
  23339148.081      402380.703  
  21558197.116     1690793.585  
  23577764.879     5114835.914  
  24318774.267    56450648.276  
  21307406.201     4565304.263  
  21213578.681   -42572746.942  
  20495086.667   -61121028.521  
  23492630.909    -3432753.347  
  22789156.679   -60409303.221  
 18  6 25  2 46  5.0000000  0 10G27G30G11G16G23G18G07G08G09G01
  21990129.286     8152656.733  
  23336128.171      386516.786  
  21555598.183     1677137.092  
  23579812.856     5125616.496  
  24321463.438    56464798.248  
  21304817.856     4551701.808  
  21211598.477   -42583149.595  
  20495961.290   -61116431.119  
  23494833.425    -3421182.387  
  22785718.225   -60427367.768  
 18  6 25  2 46 10.0000000  0 10G27G30G11G16G23G18G07G08G09G01
  21992691.002     8166122.463  
  23333109.445      370658.713  
  21552998.859     1663490.902  
  23581862.875     5136399.642  
  24324157.228    56478946.631  
  21302230.982     4538111.065  
  21209621.747   -42593540.108  
  20496836.382   -61111824.558  
  23497037.411    -3409606.160  
  22782283.674   -60445427.108  
 18  6 25  2 46 15.0000000  0 10G27G30G11G16G23G18G07G08G09G01
  21995256.311     8179591.618  
  23330092.739      354806.643  
  21550406.278     1649855.041  
  23583913.197     5147185.294  
  24326846.599    56493093.486  
  21299647.415     4524531.914  
  21207647.465   -42603918.429  
  20497715.783   -61107208.850  
  23499242.273    -3398024.791  
  22778845.706   -60463481.250  
 18  6 25  2 46 20.0000000  0 10G27G30G11G16G23G18G07G08G09G01
  21997819.577     8193064.142  
  23327077.996      338960.429  
  21547813.083     1636229.454  
  23585959.472     5157973.477  
  24329540.078    56507238.602  
  21297065.095     4510964.461  
  21205674.574   -42614284.599  
  20498596.288   -61102584.221  
  23501446.664    -3386438.227  
  22775412.418   -60481530.194  
 18  6 25  2 46 25.0000000  0 10G27G30G11G16G23G18G07G08G09G01
  22000384.550     8206539.748  
  23324064.387      323119.858  
  21545221.738     1622613.920  
  23588010.887     5168763.954  
  24332230.399    56521381.870  
  21294486.199     4497408.447  
  21203704.105   -42624638.845  
  20499477.354   -61097950.857  
  23503653.191    -3374846.843  
  22771978.119   -60499574.244  
 18  6 25  2 46 30.0000000  0 10G27G30G11G16G23G18G07G08G09G01
  22002947.140     8220018.438  
  23321051.401      307284.964  
  21542633.306     1609008.401  
  23590059.635     5179556.648  
  24334921.629    56535523.133  
  21291907.926     4483863.884  
  21201736.405   -42634981.206  
  20500360.332   -61093308.779  
  23505859.769    -3363250.613  
  22768545.730   -60517613.310  
 18  6 25  2 46 35.0000000  0  9G27G30G11G23G18G07G08G09G01
  22005513.931     8233500.646  
  23318039.037      291456.184  
  21540045.067     1595413.386  
  24337613.054    56549663.003  
  21289334.140     4470331.232  
  21199770.044   -42645311.169  
  20501246.222   -61088657.426  
  23508067.399    -3351649.092  
  22765116.254   -60535646.972  
 18  6 25  2 46 40.0000000  0  9G27G30G11G23G18G07G08G09G01
  22008081.167     8246986.358  
  23315027.692      275633.497  
  21537460.994     1581828.811  
  24340301.345    56563801.232  
  21286759.797     4456810.390  
  21197806.704   -42655628.803  
  20502132.414   -61083996.919  
  23510275.045    -3340042.320  
  22761684.504   -60553675.228  
 18  6 25  2 46 45.0000000  0  9G27G30G11G23G18G07G08G09G01
  22010645.892     8260475.599  
  23312017.126      259817.001  
  21534877.415     1568254.868  
  24342994.138    56577937.964  
  21284188.667     4443301.539  
  21195845.145   -42665933.984  
  20503021.676   -61079327.175  
  23512484.187    -3328430.267  
  22758254.107   -60571698.027  
 18  6 25  2 46 50.0000000  0 10G27G30G11G16G23G18G07G08G09G01
  22013215.634     8273968.118  
  23309007.714      244006.475  
  21532296.849     1554691.213  
  23598275.475     5222754.685  
  24345684.220    56592072.946  
  21281621.695     4429804.425  
  21193886.886   -42676226.992  
  20503911.519   -61074648.460  
  23514693.910    -3316813.212  
  22754824.148   -60589715.558  
 18  6 25  2 46 55.0000000  0 10G27G30G11G16G23G18G07G08G09G01
  22015783.983     8287464.113  
  23306001.202      228202.088  
  21529717.752     1541138.119  
  23600327.262     5233560.726  
  24348373.481    56606206.317  
  21279056.049     4416319.167  
  21191930.812   -42686507.550  
  20504804.547   -61069960.619  
  23516901.953    -3305190.946  
  22751396.945   -60607727.657  
 18  6 25  2 47  0.0000000  0 10G27G30G11G16G23G18G07G08G09G01
  22018352.796     8300963.534  
  23302995.296      212403.808  
  21527140.121     1527595.505  
  23602376.222     5244369.578  
  24351064.638    56620338.142  
  21276490.580     4402845.938  
  21189976.489   -42696775.767  
  20505697.611   -61065263.649  
  23519114.467    -3293563.528  
  22747972.210   -60625734.320  
 18  6 25  2 47  5.0000000  0 10G27G30G11G16G23G18G07G08G09G01
  22020922.039     8314466.151  
  23299990.823      196611.447  
  21524565.639     1514063.126  
  23604431.908     5255180.864  
  24353753.649    56634468.052  
  21273929.549     4389384.359  
  21188024.886   -42707031.790  
  20506592.535   -61060557.845  
  23521328.842    -3281931.194  
  22744544.613   -60643735.791  
 18  6 25  2 47 10.0000000  0 10G27G30G11G16G23G18G07G08G09G01
  22023491.145     8327972.136  
  23296986.498      180825.216  
  21521993.309     1500541.312  
  23606492.036     5265994.787  
  24356442.379    56648596.333  
  21271368.809     4375934.706  
  21186076.436   -42717275.400  
  20507490.470   -61055842.869  
  23523539.932    -3270293.723  
  22741119.599   -60661731.824  
 18  6 25  2 47 15.0000000  0 10G27G30G11G16G23G18G07G08G09G01
  22026061.708     8341481.366  
  23293983.059      165044.964  
  21519421.292     1487029.812  
  23608549.472     5276811.200  
  24359127.559    56662722.721  
  21268813.104     4362496.802  
  21184128.872   -42727506.869  
  20508389.863   -61051119.069  
  23525755.055    -3258651.355  
  22737700.048   -60679722.529  
 18  6 25  2 47 20.0000000  0 10G27G30G11G16G23G18G07G08G09G01
  22028633.151     8354993.939  
  23290981.930      149270.845  
  21516853.158     1473528.865  
  23610610.362     5287630.258  
  24361818.484    56676847.471  
  21266258.851     4349070.867  
  21182184.191   -42737725.787  
  20509290.421   -61046386.218  
  23527971.200    -3247003.870  
  22734276.368   -60697707.776  
 18  6 25  2 47 25.0000000  0  9G27G30G11G23G18G07G08G09G01
  22031205.373     8368509.778  
  23287981.007      133502.845  
  21514284.946     1460038.343  
  24364504.750    56690970.439  
  21263704.948     4335656.806  
  21180242.006   -42747932.389  
  20510192.331   -61041644.485  
  23530193.992    -3235351.416  
  22730854.756   -60715687.638  
 18  6 25  2 47 30.0000000  0 10G27G30G11G16G23G18G07G08G09G01
  22033777.560     8382028.705  
  23284980.480      117740.730  
  21511718.989     1446558.095  
  23614775.308     5309196.498  
  24367193.271    56705091.475  
  21261155.733     4322254.417  
  21178301.504   -42758126.826  
  20511096.210   -61036893.907  
  23532414.173    -3223694.139  
  22727431.821   -60733662.282  
 18  6 25  2 47 35.0000000  0 10G27G30G11G16G23G18G07G08G09G01
  22036349.614     8395550.877  
  23281982.967      101984.705  
  21509155.903     1433088.231  
  23616830.657     5320022.576  
  24369878.797    56719210.718  
  21258607.814     4308863.990  
  21176364.158   -42768309.009  
  20512001.529   -61032134.400  
  23534633.219    -3212031.959  
  22724014.476   -60751631.513  
 18  6 25  2 47 40.0000000  0 10G27G30G11G16G23G18G07G08G09G01
  22038924.596     8409076.308  
  23278985.235       86234.811  
  21506595.173     1419628.824  
  23618889.077     5330851.730  
  24372565.677    56733328.100  
  21256061.108     4295485.352  
  21174429.885   -42778478.823  
  20512909.777   -61027365.913  
  23536854.192    -3200364.776  
  22720596.340   -60769595.323  
 18  6 25  2 47 45.0000000  0 10G27G30G11G16G23G18G07G08G09G01
  22041499.289     8422604.933  
  23275989.502       70491.010  
  21504035.585     1406179.921  
  23620945.634     5341683.519  
  24375253.556    56747443.609  
  21253515.685     4282118.742  
  21172496.896   -42788636.302  
  20513819.309   -61022588.557  
  23539076.020    -3188692.762  
  22717177.771   -60787553.629  
 18  6 25  2 47 50.0000000  0 10G27G30G11G16G23G18G07G08G09G01
  22044074.593     8436136.766  
  23272994.524       54753.331  
  21501479.183     1392741.505  
  23623001.801     5352517.866  
  24377937.753    56761557.303  
  21250974.452     4268764.030  
  21170566.092   -42798781.408  
  20514727.878   -61017802.265  
  23541298.460    -3177015.800  
  22713762.961   -60805506.507  
 18  6 25  2 47 55.0000000  0  9G27G30G11G23G18G07G08G09G01
  22046649.466     8449671.663  
  23270001.260       39021.661  
  21498924.067     1379313.349  
  24380623.235    56775668.898  
  21248435.791     4255420.993  
  21168636.860   -42808914.304  
  20515641.167   -61013007.378  
  23543521.755    -3165334.137  
  22710346.574   -60823454.136  
 18  6 25  2 48  0.0000000  0 10G27G30G11G16G23G18G07G08G09G01
  22049226.404     8463209.793  
  23267009.920       23296.130  
  21496369.014     1365895.752  
  23627118.628     5374248.880  
  24383308.065    56789778.673  
  21245899.912     4242090.006  
  21166710.553   -42819034.781  
  20516555.807   -61008203.503  
  23545745.113    -3153647.571  
  22706932.969   -60841396.194  
 18  6 25  2 48  5.0000000  0 10G27G30G11G16G23G18G07G08G09G01
  22051802.778     8476751.018  
  23264017.442        7576.751  
  21493819.692     1352488.597  
  23629183.877     5385090.670  
  24385993.189    56803886.400  
  21243365.901     4228770.941  
  21164788.260   -42829142.929  
  20517471.742   -61003390.799  
  23547969.481    -3141956.180  
  22703518.514   -60859332.840  
 18  6 25  2 48 10.0000000  0 10G27G30G11G16G23G18G07G08G09G01
  22054380.214     8490295.473  
  23261027.887       -8136.446  
  21491269.572     1339091.998  
  23631246.611     5395935.090  
  24388677.514    56817992.270  
  21240833.095     4215463.879  
  21162867.315   -42839238.578  
  20518389.455   -60998569.247  
  23550195.340    -3130259.932  
  22700107.982   -60877263.891  
 18  6 25  2 48 15.0000000  0 10G27G30G11G16G23G18G07G08G09G01
  22056958.648     8503843.081  
  23258040.188      -23843.483  
  21488723.169     1325705.870  
  23633313.921     5406782.029  
  24391362.695    56832096.140  
  21238302.718     4202168.773  
  21160948.370   -42849321.823  
  20519308.452   -60993738.885  
  23552421.625    -3118558.886  
  22696696.445   -60895189.510  
 18  6 25  2 48 20.0000000  0 10G27G30G11G16G23G18G07G08G09G01
  22059534.445     8517393.810  
  23255052.714      -39544.383  
  21486178.564     1312330.211  
  23635372.441     5417631.580  
  24394043.951    56846198.093  
  21235774.856     4188885.654  
  21159031.796   -42859392.696  
  20520229.963   -60988899.641  
  23554648.278    -3106853.080  
  22693285.419   -60913109.559  
 18  6 25  2 48 25.0000000  0 10G27G30G11G16G23G18G07G08G09G01
  22062115.718     8530947.857  
  23252065.851      -55238.912  
  21483633.856     1298965.209  
  23637434.433     5428483.834  
  24396727.105    56860298.236  
  21233249.894     4175614.618  
  21157117.693   -42869450.936  
  20521151.370   -60984051.405  
  23556877.545    -3095142.317  
  22689877.151   -60931023.904  
 18  6 25  2 48 30.0000000  0 10G27G30G11G16G23G18G07G08G09G01
  22064697.054     8544505.057  
  23249077.334      -70927.150  
  21481092.787     1285610.799  
  23639495.344     5439338.645  
  24399409.464    56874396.479  
  21230726.568     4162355.686  
  21155206.086   -42879496.701  
  20522075.701   -60979194.244  
  23559105.587    -3083426.718  
  22686467.228   -60948932.676  
 18  6 25  2 48 35.0000000  0 10G27G30G11G16G23G18G07G08G09G01
  22067276.743     8558065.373  
  23246094.467      -86609.162  
  21478554.793     1272266.896  
  23641560.474     5450196.040  
  24402093.037    56888492.714  
  21228205.888     4149108.809  
  21153296.695   -42889529.993  
  20523001.391   -60974328.352  
  23561335.272    -3071706.402  
  22683062.669   -60966835.850  
 18  6 25  2 48 40.0000000  0 10G27G30G11G16G23G18G07G08G09G01
  22069856.996     8571628.829  
  23243110.735     -102284.922  
  21476016.935     1258933.555  
  23643623.593     5461055.938  
  24404774.171    56902587.014  
  21225687.491     4135873.994  
  21151390.444   -42899550.790  
